[{"city":"New York","growth_from_2000_to_2013":"4.8%","latitude":40.7127837,"longitude":-74.0059413,"population":"8405837","rank":"1","state":"New York","Median_Per_Capita_Income":35508,"Median_Rent":1351,"Median Monthly Income":2959.0},{"city":"Los Angeles","growth_from_2000_to_2013":"4.8%","latitude":34.0522342,"longitude":-118.2436849,"population":"3884307","rank":"2","state":"California","Median_Per_Capita_Income":31619,"Median_Rent":1315,"Median Monthly Income":2634.92},{"city":"Chicago","growth_from_2000_to_2013":"-6.1%","latitude":41.8781136,"longitude":-87.6297982,"population":"2718782","rank":"3","state":"Illinois","Median_Per_Capita_Income":33122,"Median_Rent":1034,"Median Monthly Income":2760.17},{"city":"Houston","growth_from_2000_to_2013":"11.0%","latitude":29.7604267,"longitude":-95.3698028,"population":"2195914","rank":"4","state":"Texas","Median_Per_Capita_Income":30080,"Median_Rent":952,"Median Monthly Income":2506.67},{"city":"Philadelphia","growth_from_2000_to_2013":"2.6%","latitude":39.9525839,"longitude":-75.1652215,"population":"1553165","rank":"5","state":"Pennsylvania","Median_Per_Capita_Income":24685,"Median_Rent":976,"Median Monthly Income":2057.08},{"city":"Phoenix","growth_from_2000_to_2013":"14.0%","latitude":33.4483771,"longitude":-112.0740373,"population":"1513367","rank":"6","state":"Arizona","Median_Per_Capita_Income":26308,"Median_Rent":960,"Median Monthly Income":2192.33},{"city":"San Antonio","growth_from_2000_to_2013":"21.0%","latitude":29.4241219,"longitude":-98.4936282,"population":"1409019","rank":"7","state":"Texas","Median_Per_Capita_Income":23921,"Median_Rent":924,"Median Monthly Income":1993.42},{"city":"San Diego","growth_from_2000_to_2013":"10.5%","latitude":32.715738,"longitude":-117.1610838,"population":"1355896","rank":"8","state":"California","Median_Per_Capita_Income":36954,"Median_Rent":1552,"Median Monthly Income":3079.5},{"city":"Dallas","growth_from_2000_to_2013":"5.6%","latitude":32.7766642,"longitude":-96.7969879,"population":"1257676","rank":"9","state":"Texas","Median_Per_Capita_Income":30739,"Median_Rent":935,"Median Monthly Income":2561.58},{"city":"San Jose","growth_from_2000_to_2013":"10.5%","latitude":37.3382082,"longitude":-121.8863286,"population":"998537","rank":"10","state":"California","Median_Per_Capita_Income":42122,"Median_Rent":1919,"Median Monthly Income":3510.17},{"city":"Austin","growth_from_2000_to_2013":"31.7%","latitude":30.267153,"longitude":-97.7430608,"population":"885400","rank":"11","state":"Texas","Median_Per_Capita_Income":39103,"Median_Rent":1194,"Median Monthly Income":3258.58},{"city":"Indianapolis","growth_from_2000_to_2013":"7.8%","latitude":39.768403,"longitude":-86.158068,"population":"843393","rank":"12","state":"Indiana","Median_Per_Capita_Income":26801,"Median_Rent":835,"Median Monthly Income":2233.42},{"city":"Jacksonville","growth_from_2000_to_2013":"14.3%","latitude":30.3321838,"longitude":-81.655651,"population":"842583","rank":"13","state":"Florida","Median_Per_Capita_Income":27226,"Median_Rent":980,"Median Monthly Income":2268.83},{"city":"San Francisco","growth_from_2000_to_2013":"7.7%","latitude":37.7749295,"longitude":-122.4194155,"population":"837442","rank":"14","state":"California","Median_Per_Capita_Income":61736,"Median_Rent":1784,"Median Monthly Income":5144.67},{"city":"Columbus","growth_from_2000_to_2013":"14.8%","latitude":39.9611755,"longitude":-82.9987942,"population":"822553","rank":"15","state":"Ohio","Median_Per_Capita_Income":26573,"Median_Rent":882,"Median Monthly Income":2214.42},{"city":"Charlotte","growth_from_2000_to_2013":"39.1%","latitude":35.2270869,"longitude":-80.8431267,"population":"792862","rank":"16","state":"North Carolina","Median_Per_Capita_Income":34461,"Median_Rent":1052,"Median Monthly Income":2871.75},{"city":"Fort Worth","growth_from_2000_to_2013":"45.1%","latitude":32.7554883,"longitude":-97.3307658,"population":"792727","rank":"17","state":"Texas","Median_Per_Capita_Income":26735,"Median_Rent":974,"Median Monthly Income":2227.92},{"city":"Detroit","growth_from_2000_to_2013":"-27.1%","latitude":42.331427,"longitude":-83.0457538,"population":"688701","rank":"18","state":"Michigan","Median_Per_Capita_Income":16784,"Median_Rent":771,"Median Monthly Income":1398.67},{"city":"El Paso","growth_from_2000_to_2013":"19.4%","latitude":31.7775757,"longitude":-106.4424559,"population":"674433","rank":"19","state":"Texas","Median_Per_Capita_Income":20655,"Median_Rent":778,"Median Monthly Income":1721.25},{"city":"Memphis","growth_from_2000_to_2013":"-5.3%","latitude":35.1495343,"longitude":-90.0489801,"population":"653450","rank":"20","state":"Tennessee","Median_Per_Capita_Income":23509,"Median_Rent":857,"Median Monthly Income":1959.08},{"city":"Seattle","growth_from_2000_to_2013":"15.6%","latitude":47.6062095,"longitude":-122.3320708,"population":"652405","rank":"21","state":"Washington","Median_Per_Capita_Income":55184,"Median_Rent":1448,"Median Monthly Income":4598.67},{"city":"Denver","growth_from_2000_to_2013":"16.7%","latitude":39.7392358,"longitude":-104.990251,"population":"649495","rank":"22","state":"Colorado","Median_Per_Capita_Income":39423,"Median_Rent":1223,"Median Monthly Income":3285.25},{"city":"Washington","growth_from_2000_to_2013":"13.0%","latitude":38.9071923,"longitude":-77.0368707,"population":"646449","rank":"23","state":"District of Columbia","Median_Per_Capita_Income":50567,"Median_Rent":1376,"Median Monthly Income":4213.92},{"city":"Boston","growth_from_2000_to_2013":"9.4%","latitude":42.3600825,"longitude":-71.0588801,"population":"645966","rank":"24","state":"Massachusetts","Median_Per_Capita_Income":40237,"Median_Rent":1491,"Median Monthly Income":3353.08},{"city":"Nashville-Davidson","growth_from_2000_to_2013":"16.2%","latitude":36.1626638,"longitude":-86.7816016,"population":"634464","rank":"25","state":"Tennessee","Median_Per_Capita_Income":31842,"Median_Rent":979,"Median Monthly Income":2653.5},{"city":"Baltimore","growth_from_2000_to_2013":"-4.0%","latitude":39.2903848,"longitude":-76.6121893,"population":"622104","rank":"26","state":"Maryland","Median_Per_Capita_Income":29449,"Median_Rent":999,"Median Monthly Income":2454.08},{"city":"Oklahoma City","growth_from_2000_to_2013":"20.2%","latitude":35.4675602,"longitude":-97.5164276,"population":"610613","rank":"27","state":"Oklahoma","Median_Per_Capita_Income":28100,"Median_Rent":802,"Median Monthly Income":2341.67},{"city":"Portland","growth_from_2000_to_2013":"15.0%","latitude":45.5230622,"longitude":-122.6764816,"population":"609456","rank":"29","state":"Oregon","Median_Per_Capita_Income":37513,"Median_Rent":1153,"Median Monthly Income":3126.08},{"city":"Las Vegas","growth_from_2000_to_2013":"24.5%","latitude":36.1699412,"longitude":-115.1398296,"population":"603488","rank":"30","state":"Nevada","Median_Per_Capita_Income":26830,"Median_Rent":996,"Median Monthly Income":2235.83},{"city":"Milwaukee","growth_from_2000_to_2013":"0.3%","latitude":43.0389025,"longitude":-87.9064736,"population":"599164","rank":"31","state":"Wisconsin","Median_Per_Capita_Income":21521,"Median_Rent":809,"Median Monthly Income":1793.42},{"city":"Albuquerque","growth_from_2000_to_2013":"23.5%","latitude":35.0853336,"longitude":-106.6055534,"population":"556495","rank":"32","state":"New Mexico","Median_Per_Capita_Income":28560,"Median_Rent":809,"Median Monthly Income":2380.0},{"city":"Tucson","growth_from_2000_to_2013":"7.5%","latitude":32.2217429,"longitude":-110.926479,"population":"526116","rank":"33","state":"Arizona","Median_Per_Capita_Income":21526,"Median_Rent":783,"Median Monthly Income":1793.83},{"city":"Fresno","growth_from_2000_to_2013":"18.3%","latitude":36.7468422,"longitude":-119.7725868,"population":"509924","rank":"34","state":"California","Median_Per_Capita_Income":22260,"Median_Rent":913,"Median Monthly Income":1855.0},{"city":"Sacramento","growth_from_2000_to_2013":"17.2%","latitude":38.5815719,"longitude":-121.4943996,"population":"479686","rank":"35","state":"California","Median_Per_Capita_Income":28875,"Median_Rent":1119,"Median Monthly Income":2406.25},{"city":"Long Beach","growth_from_2000_to_2013":"1.5%","latitude":33.7700504,"longitude":-118.1937395,"population":"469428","rank":"36","state":"California","Median_Per_Capita_Income":29096,"Median_Rent":1194,"Median Monthly Income":2424.67},{"city":"Kansas City","growth_from_2000_to_2013":"5.5%","latitude":39.0997265,"longitude":-94.5785667,"population":"467007","rank":"37","state":"Missouri","Median_Per_Capita_Income":29524,"Median_Rent":857,"Median Monthly Income":2460.33},{"city":"Mesa","growth_from_2000_to_2013":"13.5%","latitude":33.4151843,"longitude":-111.8314724,"population":"457587","rank":"38","state":"Arizona","Median_Per_Capita_Income":26713,"Median_Rent":960,"Median Monthly Income":2226.08},{"city":"Virginia Beach","growth_from_2000_to_2013":"5.1%","latitude":36.8529263,"longitude":-75.977985,"population":"448479","rank":"39","state":"Virginia","Median_Per_Capita_Income":35036,"Median_Rent":1280,"Median Monthly Income":2919.67},{"city":"Atlanta","growth_from_2000_to_2013":"6.2%","latitude":33.7489954,"longitude":-84.3879824,"population":"447841","rank":"40","state":"Georgia","Median_Per_Capita_Income":40882,"Median_Rent":1084,"Median Monthly Income":3406.83},{"city":"Colorado Springs","growth_from_2000_to_2013":"21.4%","latitude":38.8338816,"longitude":-104.8213634,"population":"439886","rank":"41","state":"Colorado","Median_Per_Capita_Income":31582,"Median_Rent":1011,"Median Monthly Income":2631.83},{"city":"Omaha","growth_from_2000_to_2013":"5.9%","latitude":41.2523634,"longitude":-95.9979883,"population":"434353","rank":"42","state":"Nebraska","Median_Per_Capita_Income":30163,"Median_Rent":860,"Median Monthly Income":2513.58},{"city":"Raleigh","growth_from_2000_to_2013":"48.7%","latitude":35.7795897,"longitude":-78.6381787,"population":"431746","rank":"43","state":"North Carolina","Median_Per_Capita_Income":37866,"Median_Rent":1027,"Median Monthly Income":3155.5},{"city":"Miami","growth_from_2000_to_2013":"14.9%","latitude":25.7616798,"longitude":-80.1917902,"population":"417650","rank":"44","state":"Florida","Median_Per_Capita_Income":25928,"Median_Rent":1063,"Median Monthly Income":2160.67},{"city":"Oakland","growth_from_2000_to_2013":"1.3%","latitude":37.8043637,"longitude":-122.2711137,"population":"406253","rank":"45","state":"California","Median_Per_Capita_Income":38198,"Median_Rent":1310,"Median Monthly Income":3183.17},{"city":"Minneapolis","growth_from_2000_to_2013":"4.5%","latitude":44.977753,"longitude":-93.2650108,"population":"400070","rank":"46","state":"Minnesota","Median_Per_Capita_Income":34527,"Median_Rent":932,"Median Monthly Income":2877.25},{"city":"Tulsa","growth_from_2000_to_2013":"1.3%","latitude":36.1539816,"longitude":-95.992775,"population":"398121","rank":"47","state":"Oklahoma","Median_Per_Capita_Income":28072,"Median_Rent":768,"Median Monthly Income":2339.33},{"city":"Cleveland","growth_from_2000_to_2013":"-18.1%","latitude":41.49932,"longitude":-81.6943605,"population":"390113","rank":"48","state":"Ohio","Median_Per_Capita_Income":19137,"Median_Rent":669,"Median Monthly Income":1594.75},{"city":"Wichita","growth_from_2000_to_2013":"9.7%","latitude":37.688889,"longitude":-97.336111,"population":"386552","rank":"49","state":"Kansas","Median_Per_Capita_Income":26654,"Median_Rent":762,"Median Monthly Income":2221.17},{"city":"Arlington","growth_from_2000_to_2013":"13.3%","latitude":32.735687,"longitude":-97.1080656,"population":"379577","rank":"50","state":"Texas","Median_Per_Capita_Income":26136,"Median_Rent":920,"Median Monthly Income":2178.0},{"city":"New Orleans","growth_from_2000_to_2013":"-21.6%","latitude":29.9510658,"longitude":-90.0715323,"population":"378715","rank":"51","state":"Louisiana","Median_Per_Capita_Income":29183,"Median_Rent":934,"Median Monthly Income":2431.92},{"city":"Bakersfield","growth_from_2000_to_2013":"48.4%","latitude":35.3732921,"longitude":-119.0187125,"population":"363630","rank":"52","state":"California","Median_Per_Capita_Income":24488,"Median_Rent":1015,"Median Monthly Income":2040.67},{"city":"Tampa","growth_from_2000_to_2013":"16.0%","latitude":27.950575,"longitude":-82.4571776,"population":"352957","rank":"53","state":"Florida","Median_Per_Capita_Income":33481,"Median_Rent":1067,"Median Monthly Income":2790.08},{"city":"Aurora","growth_from_2000_to_2013":"24.4%","latitude":39.7294319,"longitude":-104.8319195,"population":"345803","rank":"55","state":"Colorado","Median_Per_Capita_Income":26836,"Median_Rent":1262,"Median Monthly Income":2236.33},{"city":"Anaheim","growth_from_2000_to_2013":"4.7%","latitude":33.8352932,"longitude":-117.9145036,"population":"345012","rank":"56","state":"California","Median_Per_Capita_Income":25127,"Median_Rent":1489,"Median Monthly Income":2093.92},{"city":"Santa Ana","growth_from_2000_to_2013":"-1.2%","latitude":33.7455731,"longitude":-117.8678338,"population":"334227","rank":"57","state":"California","Median_Per_Capita_Income":18577,"Median_Rent":1438,"Median Monthly Income":1548.08},{"city":"St. Louis","growth_from_2000_to_2013":"-8.2%","latitude":38.6270025,"longitude":-90.1994042,"population":"318416","rank":"58","state":"Missouri","Median_Per_Capita_Income":28794,"Median_Rent":781,"Median Monthly Income":2399.5},{"city":"Riverside","growth_from_2000_to_2013":"22.5%","latitude":33.9533487,"longitude":-117.3961564,"population":"316619","rank":"59","state":"California","Median_Per_Capita_Income":24064,"Median_Rent":1281,"Median Monthly Income":2005.33},{"city":"Corpus Christi","growth_from_2000_to_2013":"14.1%","latitude":27.8005828,"longitude":-97.396381,"population":"316381","rank":"60","state":"Texas","Median_Per_Capita_Income":26481,"Median_Rent":968,"Median Monthly Income":2206.75},{"city":"Lexington-Fayette","growth_from_2000_to_2013":"18.0%","latitude":38.0405837,"longitude":-84.5037164,"population":"308428","rank":"61","state":"Kentucky","Median_Per_Capita_Income":32166,"Median_Rent":818,"Median Monthly Income":2680.5},{"city":"Pittsburgh","growth_from_2000_to_2013":"-8.3%","latitude":40.4406248,"longitude":-79.9958864,"population":"305841","rank":"62","state":"Pennsylvania","Median_Per_Capita_Income":30244,"Median_Rent":874,"Median Monthly Income":2520.33},{"city":"Anchorage","growth_from_2000_to_2013":"15.4%","latitude":61.2180556,"longitude":-149.9002778,"population":"300950","rank":"63","state":"Alaska","Median_Per_Capita_Income":39061,"Median_Rent":1296,"Median Monthly Income":3255.08},{"city":"Stockton","growth_from_2000_to_2013":"21.8%","latitude":37.9577016,"longitude":-121.2907796,"population":"298118","rank":"64","state":"California","Median_Per_Capita_Income":22440,"Median_Rent":1024,"Median Monthly Income":1870.0},{"city":"Cincinnati","growth_from_2000_to_2013":"-10.1%","latitude":39.1031182,"longitude":-84.5120196,"population":"297517","rank":"65","state":"Ohio","Median_Per_Capita_Income":28465,"Median_Rent":684,"Median Monthly Income":2372.08},{"city":"St. Paul","growth_from_2000_to_2013":"2.8%","latitude":44.9537029,"longitude":-93.0899578,"population":"294873","rank":"66","state":"Minnesota","Median_Per_Capita_Income":29123,"Median_Rent":902,"Median Monthly Income":2426.92},{"city":"Toledo","growth_from_2000_to_2013":"-10.0%","latitude":41.6639383,"longitude":-83.555212,"population":"282313","rank":"67","state":"Ohio","Median_Per_Capita_Income":21147,"Median_Rent":650,"Median Monthly Income":1762.25},{"city":"Greensboro","growth_from_2000_to_2013":"22.3%","latitude":36.0726354,"longitude":-79.7919754,"population":"279639","rank":"68","state":"North Carolina","Median_Per_Capita_Income":27563,"Median_Rent":803,"Median Monthly Income":2296.92},{"city":"Newark","growth_from_2000_to_2013":"2.1%","latitude":40.735657,"longitude":-74.1723667,"population":"278427","rank":"69","state":"New Jersey","Median_Per_Capita_Income":18553,"Median_Rent":1013,"Median Monthly Income":1546.08},{"city":"Plano","growth_from_2000_to_2013":"22.4%","latitude":33.0198431,"longitude":-96.6988856,"population":"274409","rank":"70","state":"Texas","Median_Per_Capita_Income":43296,"Median_Rent":1294,"Median Monthly Income":3608.0},{"city":"Henderson","growth_from_2000_to_2013":"51.0%","latitude":36.0395247,"longitude":-114.9817213,"population":"270811","rank":"71","state":"Nevada","Median_Per_Capita_Income":35030,"Median_Rent":1164,"Median Monthly Income":2919.17},{"city":"Lincoln","growth_from_2000_to_2013":"18.0%","latitude":40.8257625,"longitude":-96.6851982,"population":"268738","rank":"72","state":"Nebraska","Median_Per_Capita_Income":29370,"Median_Rent":773,"Median Monthly Income":2447.5},{"city":"Buffalo","growth_from_2000_to_2013":"-11.3%","latitude":42.8864468,"longitude":-78.8783689,"population":"258959","rank":"73","state":"New York","Median_Per_Capita_Income":22300,"Median_Rent":707,"Median Monthly Income":1858.33},{"city":"Jersey City","growth_from_2000_to_2013":"7.2%","latitude":40.7281575,"longitude":-74.0776417,"population":"257342","rank":"74","state":"New Jersey","Median_Per_Capita_Income":37995,"Median_Rent":1284,"Median Monthly Income":3166.25},{"city":"Chula Vista","growth_from_2000_to_2013":"46.2%","latitude":32.6400541,"longitude":-117.0841955,"population":"256780","rank":"75","state":"California","Median_Per_Capita_Income":27103,"Median_Rent":1413,"Median Monthly Income":2258.58},{"city":"Fort Wayne","growth_from_2000_to_2013":"1.0%","latitude":41.079273,"longitude":-85.1393513,"population":"256496","rank":"76","state":"Indiana","Median_Per_Capita_Income":24255,"Median_Rent":703,"Median Monthly Income":2021.25},{"city":"Orlando","growth_from_2000_to_2013":"31.2%","latitude":28.5383355,"longitude":-81.3792365,"population":"255483","rank":"77","state":"Florida","Median_Per_Capita_Income":28764,"Median_Rent":1114,"Median Monthly Income":2397.0},{"city":"St. Petersburg","growth_from_2000_to_2013":"0.3%","latitude":27.773056,"longitude":-82.64,"population":"249688","rank":"78","state":"Florida","Median_Per_Capita_Income":31860,"Median_Rent":991,"Median Monthly Income":2655.0},{"city":"Chandler","growth_from_2000_to_2013":"38.7%","latitude":33.3061605,"longitude":-111.8412502,"population":"249146","rank":"79","state":"Arizona","Median_Per_Capita_Income":35893,"Median_Rent":1211,"Median Monthly Income":2991.08},{"city":"Laredo","growth_from_2000_to_2013":"38.2%","latitude":27.5305671,"longitude":-99.4803241,"population":"248142","rank":"80","state":"Texas","Median_Per_Capita_Income":15842,"Median_Rent":793,"Median Monthly Income":1320.17},{"city":"Norfolk","growth_from_2000_to_2013":"5.0%","latitude":36.8507689,"longitude":-76.2858726,"population":"246139","rank":"81","state":"Virginia","Median_Per_Capita_Income":27240,"Median_Rent":988,"Median Monthly Income":2270.0},{"city":"Durham","growth_from_2000_to_2013":"29.9%","latitude":35.9940329,"longitude":-78.898619,"population":"245475","rank":"82","state":"North Carolina","Median_Per_Capita_Income":30850,"Median_Rent":949,"Median Monthly Income":2570.83},{"city":"Madison","growth_from_2000_to_2013":"15.8%","latitude":43.0730517,"longitude":-89.4012302,"population":"243344","rank":"83","state":"Wisconsin","Median_Per_Capita_Income":36181,"Median_Rent":1008,"Median Monthly Income":3015.08},{"city":"Lubbock","growth_from_2000_to_2013":"19.6%","latitude":33.5778631,"longitude":-101.8551665,"population":"239538","rank":"84","state":"Texas","Median_Per_Capita_Income":25495,"Median_Rent":910,"Median Monthly Income":2124.58},{"city":"Irvine","growth_from_2000_to_2013":"61.3%","latitude":33.6839473,"longitude":-117.7946942,"population":"236716","rank":"85","state":"California","Median_Per_Capita_Income":49205,"Median_Rent":2243,"Median Monthly Income":4100.42},{"city":"Winston-Salem","growth_from_2000_to_2013":"16.9%","latitude":36.0998596,"longitude":-80.244216,"population":"236441","rank":"86","state":"North Carolina","Median_Per_Capita_Income":27789,"Median_Rent":745,"Median Monthly Income":2315.75},{"city":"Glendale","growth_from_2000_to_2013":"5.7%","latitude":33.5386523,"longitude":-112.1859866,"population":"234632","rank":"87","state":"Arizona","Median_Per_Capita_Income":24658,"Median_Rent":906,"Median Monthly Income":2054.83},{"city":"Garland","growth_from_2000_to_2013":"8.5%","latitude":32.912624,"longitude":-96.6388833,"population":"234566","rank":"88","state":"Texas","Median_Per_Capita_Income":22451,"Median_Rent":1011,"Median Monthly Income":1870.92},{"city":"Hialeah","growth_from_2000_to_2013":"3.2%","latitude":25.8575963,"longitude":-80.2781057,"population":"233394","rank":"89","state":"Florida","Median_Per_Capita_Income":15014,"Median_Rent":1067,"Median Monthly Income":1251.17},{"city":"Reno","growth_from_2000_to_2013":"26.8%","latitude":39.5296329,"longitude":-119.8138027,"population":"233294","rank":"90","state":"Nevada","Median_Per_Capita_Income":29693,"Median_Rent":908,"Median Monthly Income":2474.42},{"city":"Chesapeake","growth_from_2000_to_2013":"15.1%","latitude":36.7682088,"longitude":-76.2874927,"population":"230571","rank":"91","state":"Virginia","Median_Per_Capita_Income":32930,"Median_Rent":1184,"Median Monthly Income":2744.17},{"city":"Gilbert","growth_from_2000_to_2013":"96.0%","latitude":33.3528264,"longitude":-111.789027,"population":"229972","rank":"92","state":"Arizona","Median_Per_Capita_Income":34565,"Median_Rent":1382,"Median Monthly Income":2880.42},{"city":"Baton Rouge","growth_from_2000_to_2013":"0.4%","latitude":30.4582829,"longitude":-91.1403196,"population":"229426","rank":"93","state":"Louisiana","Median_Per_Capita_Income":26954,"Median_Rent":818,"Median Monthly Income":2246.17},{"city":"Irving","growth_from_2000_to_2013":"19.1%","latitude":32.8140177,"longitude":-96.9488945,"population":"228653","rank":"94","state":"Texas","Median_Per_Capita_Income":28568,"Median_Rent":989,"Median Monthly Income":2380.67},{"city":"Scottsdale","growth_from_2000_to_2013":"11.0%","latitude":33.4941704,"longitude":-111.9260519,"population":"226918","rank":"95","state":"Arizona","Median_Per_Capita_Income":57346,"Median_Rent":1256,"Median Monthly Income":4778.83},{"city":"North Las Vegas","growth_from_2000_to_2013":"92.2%","latitude":36.1988592,"longitude":-115.1175013,"population":"226877","rank":"96","state":"Nevada","Median_Per_Capita_Income":22138,"Median_Rent":1137,"Median Monthly Income":1844.83},{"city":"Fremont","growth_from_2000_to_2013":"10.0%","latitude":37.5482697,"longitude":-121.9885719,"population":"224922","rank":"97","state":"California","Median_Per_Capita_Income":46899,"Median_Rent":2168,"Median Monthly Income":3908.25},{"city":"Boise City","growth_from_2000_to_2013":"9.5%","latitude":43.6187102,"longitude":-116.2146068,"population":"214237","rank":"98","state":"Idaho","Median_Per_Capita_Income":33086,"Median_Rent":870,"Median Monthly Income":2757.17},{"city":"Richmond","growth_from_2000_to_2013":"8.2%","latitude":37.5407246,"longitude":-77.4360481,"population":"214114","rank":"99","state":"Virginia","Median_Per_Capita_Income":31256,"Median_Rent":942,"Median Monthly Income":2604.67},{"city":"San Bernardino","growth_from_2000_to_2013":"13.0%","latitude":34.1083449,"longitude":-117.2897652,"population":"213708","rank":"100","state":"California","Median_Per_Capita_Income":16025,"Median_Rent":960,"Median Monthly Income":1335.42}]