[{"Name":"American University","Latitude":38.937802,"Longitude":-77.090106,"Debt for Income <30K":22250.0,"Debt for Income between 31K & 75K":23019.0,"Debt for Income greater than 75K":19500.0,"Monthly Payments":250.74},{"Name":"Boston College","Latitude":42.337688,"Longitude":-71.171488,"Debt for Income <30K":19000.0,"Debt for Income between 31K & 75K":19000.0,"Debt for Income greater than 75K":18892.0,"Monthly Payments":196.46},{"Name":"Boston University","Latitude":42.349581,"Longitude":-71.09984,"Debt for Income <30K":24350.0,"Debt for Income between 31K & 75K":25500.0,"Debt for Income greater than 75K":23497.0,"Monthly Payments":279.17},{"Name":"Brandeis University","Latitude":42.364947,"Longitude":-71.254716,"Debt for Income <30K":25310.0,"Debt for Income between 31K & 75K":26500.0,"Debt for Income greater than 75K":26500.0,"Monthly Payments":279.17},{"Name":"Brown University","Latitude":41.827605,"Longitude":-71.404467,"Debt for Income <30K":10000.0,"Debt for Income between 31K & 75K":13500.0,"Debt for Income greater than 75K":16000.0,"Monthly Payments":155.1},{"Name":"Carnegie Mellon University","Latitude":40.444616,"Longitude":-79.942914,"Debt for Income <30K":26500.0,"Debt for Income between 31K & 75K":27000.0,"Debt for Income greater than 75K":23000.0,"Monthly Payments":271.42},{"Name":"Case Western Reserve University","Latitude":41.500812,"Longitude":-81.605769,"Debt for Income <30K":22200.0,"Debt for Income between 31K & 75K":24500.0,"Debt for Income greater than 75K":19500.0,"Monthly Payments":248.84},{"Name":"Clark University","Latitude":42.251064,"Longitude":-71.823537,"Debt for Income <30K":27000.0,"Debt for Income between 31K & 75K":26000.0,"Debt for Income greater than 75K":24000.0,"Monthly Payments":279.17},{"Name":"Colorado School of Mines","Latitude":39.75079,"Longitude":-105.227148,"Debt for Income <30K":23875.0,"Debt for Income between 31K & 75K":23791.0,"Debt for Income greater than 75K":20500.0,"Monthly Payments":268.83},{"Name":"Cornell University","Latitude":42.447199,"Longitude":-76.483489,"Debt for Income <30K":6585.5,"Debt for Income between 31K & 75K":9513.0,"Debt for Income greater than 75K":13902.5,"Monthly Payments":124.08},{"Name":"Dartmouth College","Latitude":43.70408,"Longitude":-72.289951,"Debt for Income <30K":6000.0,"Debt for Income between 31K & 75K":11093.0,"Debt for Income greater than 75K":16458.0,"Monthly Payments":139.19},{"Name":"Duke University","Latitude":36.00159,"Longitude":-78.94226,"Debt for Income <30K":4000.0,"Debt for Income between 31K & 75K":7500.0,"Debt for Income greater than 75K":15000.0,"Monthly Payments":77.55},{"Name":"Emory University","Latitude":33.798836,"Longitude":-84.325782,"Debt for Income <30K":6227.0,"Debt for Income between 31K & 75K":18750.0,"Debt for Income greater than 75K":19500.0,"Monthly Payments":178.19},{"Name":"Florida State University","Latitude":30.4421,"Longitude":-84.294801,"Debt for Income <30K":18500.0,"Debt for Income between 31K & 75K":18750.0,"Debt for Income greater than 75K":18557.0,"Monthly Payments":214.55},{"Name":"George Mason University","Latitude":38.83088,"Longitude":-77.30794,"Debt for Income <30K":16479.5,"Debt for Income between 31K & 75K":16000.0,"Debt for Income greater than 75K":15810.5,"Monthly Payments":204.21},{"Name":"George Washington University","Latitude":38.89865,"Longitude":-77.047871,"Debt for Income <30K":20400.0,"Debt for Income between 31K & 75K":24268.5,"Debt for Income greater than 75K":20950.0,"Monthly Payments":258.1},{"Name":"Georgetown University","Latitude":38.908809,"Longitude":-77.073463,"Debt for Income <30K":12000.0,"Debt for Income between 31K & 75K":12524.5,"Debt for Income greater than 75K":16000.0,"Monthly Payments":160.27},{"Name":"Harvard University","Latitude":42.374429,"Longitude":-71.118177,"Debt for Income <30K":7500.0,"Debt for Income between 31K & 75K":6000.0,"Debt for Income greater than 75K":7500.0,"Monthly Payments":67.21},{"Name":"Iowa State University","Latitude":42.026368,"Longitude":-93.648353,"Debt for Income <30K":18960.0,"Debt for Income between 31K & 75K":19500.0,"Debt for Income greater than 75K":18750.0,"Monthly Payments":246.79},{"Name":"Johns Hopkins University","Latitude":39.32838,"Longitude":-76.620799,"Debt for Income <30K":9000.0,"Debt for Income between 31K & 75K":15000.0,"Debt for Income greater than 75K":16250.0,"Monthly Payments":155.1},{"Name":"Massachusetts Institute of Technology","Latitude":42.360095,"Longitude":-71.092115,"Debt for Income <30K":10593.0,"Debt for Income between 31K & 75K":15847.0,"Debt for Income greater than 75K":17288.0,"Monthly Payments":179.04},{"Name":"Michigan State University","Latitude":42.73212,"Longitude":-84.476111,"Debt for Income <30K":21219.5,"Debt for Income between 31K & 75K":25717.0,"Debt for Income greater than 75K":20529.0,"Monthly Payments":263.5},{"Name":"New York University","Latitude":40.729452,"Longitude":-73.997264,"Debt for Income <30K":19000.0,"Debt for Income between 31K & 75K":22800.0,"Debt for Income greater than 75K":19800.0,"Monthly Payments":240.4},{"Name":"Northeastern University","Latitude":42.339992,"Longitude":-71.088782,"Debt for Income <30K":24731.0,"Debt for Income between 31K & 75K":25000.0,"Debt for Income greater than 75K":25500.0,"Monthly Payments":288.22},{"Name":"Northwestern University","Latitude":42.058377,"Longitude":-87.673653,"Debt for Income <30K":15895.0,"Debt for Income between 31K & 75K":19312.0,"Debt for Income greater than 75K":18000.0,"Monthly Payments":200.36},{"Name":"Oregon State University","Latitude":44.56274,"Longitude":-123.274721,"Debt for Income <30K":18000.0,"Debt for Income between 31K & 75K":16500.0,"Debt for Income greater than 75K":15000.0,"Monthly Payments":242.98},{"Name":"Princeton University","Latitude":40.34853,"Longitude":-74.663603,"Debt for Income <30K":3765.0,"Debt for Income between 31K & 75K":3638.0,"Debt for Income greater than 75K":12290.0,"Monthly Payments":77.55},{"Name":"Rensselaer Polytechnic Institute","Latitude":42.728983,"Longitude":-73.678768,"Debt for Income <30K":30899.0,"Debt for Income between 31K & 75K":29325.0,"Debt for Income greater than 75K":25750.0,"Monthly Payments":284.34},{"Name":"Rice University","Latitude":29.716485,"Longitude":-95.403625,"Debt for Income <30K":7500.0,"Debt for Income between 31K & 75K":8763.5,"Debt for Income greater than 75K":11000.0,"Monthly Payments":105.75},{"Name":"Stanford University","Latitude":37.426967,"Longitude":-122.168826,"Debt for Income <30K":7382.0,"Debt for Income between 31K & 75K":10144.0,"Debt for Income greater than 75K":15039.5,"Monthly Payments":128.99},{"Name":"Stony Brook University","Latitude":40.913138,"Longitude":-73.123595,"Debt for Income <30K":16000.0,"Debt for Income between 31K & 75K":15500.0,"Debt for Income greater than 75K":15250.0,"Monthly Payments":196.46},{"Name":"Syracuse University","Latitude":43.040005,"Longitude":-76.136633,"Debt for Income <30K":27000.0,"Debt for Income between 31K & 75K":29000.0,"Debt for Income greater than 75K":24250.0,"Monthly Payments":279.17},{"Name":"Tufts University","Latitude":42.406994,"Longitude":-71.121689,"Debt for Income <30K":10600.0,"Debt for Income between 31K & 75K":17500.0,"Debt for Income greater than 75K":17500.0,"Monthly Payments":186.12},{"Name":"University at Buffalo","Latitude":43.001433,"Longitude":-78.790103,"Debt for Income <30K":13875.0,"Debt for Income between 31K & 75K":15775.0,"Debt for Income greater than 75K":15000.0,"Monthly Payments":201.63},{"Name":"The University of Alabama","Latitude":33.2144,"Longitude":-87.545766,"Debt for Income <30K":17992.0,"Debt for Income between 31K & 75K":17469.5,"Debt for Income greater than 75K":17000.0,"Monthly Payments":245.57},{"Name":"University of Alabama at Birmingham","Latitude":33.50223,"Longitude":-86.80917,"Debt for Income <30K":14739.0,"Debt for Income between 31K & 75K":14250.0,"Debt for Income greater than 75K":14000.0,"Monthly Payments":222.3},{"Name":"University of Alaska Fairbanks","Latitude":64.856483,"Longitude":-147.822943,"Debt for Income <30K":10750.0,"Debt for Income between 31K & 75K":9192.0,"Debt for Income greater than 75K":7567.5,"Monthly Payments":175.52},{"Name":"University of Arizona","Latitude":32.232071,"Longitude":-110.950769,"Debt for Income <30K":13400.0,"Debt for Income between 31K & 75K":13051.5,"Debt for Income greater than 75K":12000.0,"Monthly Payments":196.46},{"Name":"University of Chicago","Latitude":41.78917,"Longitude":-87.601196,"Debt for Income <30K":6300.0,"Debt for Income between 31K & 75K":14500.0,"Debt for Income greater than 75K":20064.0,"Monthly Payments":149.93},{"Name":"University of Colorado Boulder","Latitude":40.004415,"Longitude":-105.267061,"Debt for Income <30K":15000.0,"Debt for Income between 31K & 75K":13500.0,"Debt for Income greater than 75K":13000.0,"Monthly Payments":201.63},{"Name":"University of Connecticut","Latitude":41.806261,"Longitude":-72.247969,"Debt for Income <30K":16250.0,"Debt for Income between 31K & 75K":19124.5,"Debt for Income greater than 75K":19250.0,"Monthly Payments":222.3},{"Name":"University of Delaware","Latitude":39.679574,"Longitude":-75.752917,"Debt for Income <30K":20000.0,"Debt for Income between 31K & 75K":21000.0,"Debt for Income greater than 75K":22000.0,"Monthly Payments":250.25},{"Name":"University of Denver","Latitude":39.695954,"Longitude":-104.964625,"Debt for Income <30K":19667.0,"Debt for Income between 31K & 75K":21500.0,"Debt for Income greater than 75K":18332.0,"Monthly Payments":245.04},{"Name":"University of Florida","Latitude":29.649428,"Longitude":-82.339958,"Debt for Income <30K":13279.5,"Debt for Income between 31K & 75K":14750.0,"Debt for Income greater than 75K":15000.0,"Monthly Payments":163.52},{"Name":"University of Houston","Latitude":29.719988,"Longitude":-95.344851,"Debt for Income <30K":13750.0,"Debt for Income between 31K & 75K":12993.0,"Debt for Income greater than 75K":13000.0,"Monthly Payments":204.21},{"Name":"University of Illinois at Chicago","Latitude":41.872651,"Longitude":-87.651145,"Debt for Income <30K":14166.0,"Debt for Income between 31K & 75K":13798.0,"Debt for Income greater than 75K":15000.0,"Monthly Payments":193.87},{"Name":"University of Illinois at Urbana-Champaign","Latitude":40.108864,"Longitude":-88.230309,"Debt for Income <30K":16750.0,"Debt for Income between 31K & 75K":20000.0,"Debt for Income greater than 75K":18750.0,"Monthly Payments":211.96},{"Name":"University of Iowa","Latitude":41.660695,"Longitude":-91.535698,"Debt for Income <30K":14243.5,"Debt for Income between 31K & 75K":17505.0,"Debt for Income greater than 75K":18250.0,"Monthly Payments":223.5},{"Name":"University of Miami","Latitude":25.720406,"Longitude":-80.27645,"Debt for Income <30K":18250.0,"Debt for Income between 31K & 75K":18475.0,"Debt for Income greater than 75K":17500.0,"Monthly Payments":205.2},{"Name":"University of Minnesota-Twin Cities","Latitude":44.977886,"Longitude":-93.235352,"Debt for Income <30K":17492.0,"Debt for Income between 31K & 75K":17416.0,"Debt for Income greater than 75K":17250.0,"Monthly Payments":208.71},{"Name":"University of Nebraska-Lincoln","Latitude":40.822272,"Longitude":-96.702177,"Debt for Income <30K":13650.0,"Debt for Income between 31K & 75K":14664.5,"Debt for Income greater than 75K":14988.0,"Monthly Payments":224.37},{"Name":"University of North Carolina at Chapel Hill","Latitude":35.912165,"Longitude":-79.050969,"Debt for Income <30K":11000.0,"Debt for Income between 31K & 75K":15500.0,"Debt for Income greater than 75K":17017.0,"Monthly Payments":170.39},{"Name":"University of Notre Dame","Latitude":41.703058,"Longitude":-86.238959,"Debt for Income <30K":19000.0,"Debt for Income between 31K & 75K":19000.0,"Debt for Income greater than 75K":21500.0,"Monthly Payments":222.3},{"Name":"University of Oregon","Latitude":44.044515,"Longitude":-123.07398,"Debt for Income <30K":18961.0,"Debt for Income between 31K & 75K":16499.0,"Debt for Income greater than 75K":16091.0,"Monthly Payments":218.18},{"Name":"University of Pennsylvania","Latitude":39.951002,"Longitude":-75.193618,"Debt for Income <30K":13695.0,"Debt for Income between 31K & 75K":17632.5,"Debt for Income greater than 75K":21500.0,"Monthly Payments":213.35},{"Name":"University of Rochester","Latitude":43.126437,"Longitude":-77.631042,"Debt for Income <30K":21650.0,"Debt for Income between 31K & 75K":25000.0,"Debt for Income greater than 75K":21500.0,"Monthly Payments":253.32},{"Name":"University of Southern California","Latitude":34.021058,"Longitude":-118.283858,"Debt for Income <30K":22500.0,"Debt for Income between 31K & 75K":22750.0,"Debt for Income greater than 75K":19711.5,"Monthly Payments":231.35},{"Name":"The University of Tennessee-Knoxville","Latitude":35.955093,"Longitude":-83.929696,"Debt for Income <30K":12500.0,"Debt for Income between 31K & 75K":14750.0,"Debt for Income greater than 75K":14500.0,"Monthly Payments":206.8},{"Name":"The University of Texas at Austin","Latitude":30.286598,"Longitude":-97.73924,"Debt for Income <30K":22132.5,"Debt for Income between 31K & 75K":21006.5,"Debt for Income greater than 75K":19623.0,"Monthly Payments":230.06},{"Name":"The University of Texas at Dallas","Latitude":32.989432,"Longitude":-96.748371,"Debt for Income <30K":13750.0,"Debt for Income between 31K & 75K":14707.0,"Debt for Income greater than 75K":12500.0,"Monthly Payments":193.87},{"Name":"University of Utah","Latitude":40.762484,"Longitude":-111.846044,"Debt for Income <30K":11313.0,"Debt for Income between 31K & 75K":12500.0,"Debt for Income greater than 75K":12000.0,"Monthly Payments":155.1},{"Name":"University of Wisconsin-Madison","Latitude":43.073858,"Longitude":-89.405356,"Debt for Income <30K":18615.0,"Debt for Income between 31K & 75K":21436.5,"Debt for Income greater than 75K":19900.0,"Monthly Payments":230.06},{"Name":"Vanderbilt University","Latitude":36.14443,"Longitude":-86.804875,"Debt for Income <30K":7341.0,"Debt for Income between 31K & 75K":11000.0,"Debt for Income greater than 75K":15000.0,"Monthly Payments":144.76},{"Name":"Virginia Polytechnic Institute and State University","Latitude":37.228572,"Longitude":-80.423229,"Debt for Income <30K":21959.5,"Debt for Income between 31K & 75K":22500.0,"Debt for Income greater than 75K":20937.0,"Monthly Payments":247.81},{"Name":"Wake Forest University","Latitude":36.135301,"Longitude":-80.279004,"Debt for Income <30K":24514.0,"Debt for Income between 31K & 75K":26609.0,"Debt for Income greater than 75K":20500.0,"Monthly Payments":237.81},{"Name":"Washington State University","Latitude":46.730448,"Longitude":-117.158168,"Debt for Income <30K":15000.0,"Debt for Income between 31K & 75K":14759.0,"Debt for Income greater than 75K":14750.0,"Monthly Payments":211.23},{"Name":"Washington University in St Louis","Latitude":38.648125,"Longitude":-90.311639,"Debt for Income <30K":13593.0,"Debt for Income between 31K & 75K":17548.0,"Debt for Income greater than 75K":19725.5,"Monthly Payments":205.76},{"Name":"Yale University","Latitude":41.311158,"Longitude":-72.926688,"Debt for Income <30K":10026.5,"Debt for Income between 31K & 75K":9000.0,"Debt for Income greater than 75K":15000.0,"Monthly Payments":139.59}]